City,Lat,Lng,Max Temp,Humidity,Cloudiness,Windspeed,Country,Date
luderitz,-26.6481,15.1594,70.27,29,1,5.84,NA,1663116882
gigmoto,13.7796,124.39,85.37,74,100,9.22,PH,1663116882
neka,36.6508,53.299,73.06,46,0,6.38,IR,1663116883
bengkulu,-3.8004,102.2655,75.9,85,100,2.39,ID,1663116884
mao,39.8885,4.2658,81.16,89,20,12.66,ES,1663116885
tuatapere,-46.1333,167.6833,48.63,69,97,4.59,NZ,1663116885
mahebourg,-20.4081,57.7,69.26,94,75,3.44,MU,1663116886
punta arenas,-53.15,-70.9167,41.11,65,40,25.32,CL,1663116887
frontera,26.9333,-101.45,87.33,42,94,8.01,MX,1663116888
puga,21.5833,-104.8167,70.11,98,100,2.66,MX,1663116889
hermanus,-34.4187,19.2345,54.3,83,0,11.68,ZA,1663116889
rikitea,-23.1203,-134.9692,72.46,71,100,7.76,PF,1663116890
tobermory,45.2501,-81.6665,65.28,83,33,14.52,CA,1663116891
hobart,-42.8794,147.3294,53.46,56,20,14.97,AU,1663116892
busselton,-33.65,115.3333,56.16,71,97,17.67,AU,1663116893
vaini,-21.2,-175.2,82.56,74,20,8.05,TO,1663116893
butaritari,3.0707,172.7902,81.59,71,6,8.61,KI,1663116894
nanortalik,60.1432,-45.2371,44.56,76,7,7.25,GL,1663116895
barrow,71.2906,-156.7887,34.95,93,100,24.05,US,1663116896
brae,60.3964,-1.353,53.15,81,100,12.95,GB,1663116897
teeli,51.0333,90.2333,45.82,66,24,1.03,RU,1663116897
bali,-8.5,115.0,79.77,65,51,7.76,ID,1663116827
tongliao,43.6125,122.2653,64.45,47,89,6.29,CN,1663116899
puerto ayora,-0.7393,-90.3518,65.55,95,82,4.0,EC,1663116899
egvekinot,66.3167,-179.1667,35.15,98,100,6.2,RU,1663116900
shadegan,30.6497,48.6647,85.95,54,0,8.37,IR,1663116902
mar del plata,-38.0023,-57.5575,50.09,90,100,9.22,AR,1663116903
bambous virieux,-20.3428,57.7575,69.22,94,75,3.44,MU,1663116904
preili,56.2944,26.7246,49.46,97,100,6.13,LV,1663116904
grahamstown,-33.3042,26.5328,46.96,89,0,3.67,ZA,1663116905
navirai,-23.065,-54.1906,63.19,90,100,8.3,BR,1663116906
cherskiy,68.75,161.3,36.84,87,100,6.2,RU,1663116907
port alfred,-33.5906,26.891,53.19,91,0,10.07,ZA,1663116855
mosetse,-20.75,26.65,61.41,65,0,19.8,BW,1663116908
tuktoyaktuk,69.4541,-133.0374,39.2,81,100,14.97,CA,1663116909
cockburn town,21.4612,-71.1419,84.16,74,40,9.22,TC,1663116910
coruripe,-10.1256,-36.1756,72.45,87,6,4.14,BR,1663116911
jamestown,42.097,-79.2353,59.72,69,75,5.75,US,1663116912
nicoya,10.1483,-85.452,74.46,95,100,3.18,CR,1663116913
nikolskoye,59.7035,30.7861,55.87,74,100,6.78,RU,1663116914
paita,-5.0892,-81.1144,62.85,82,0,17.07,PE,1663116719
kapaa,22.0752,-159.319,83.48,69,6,5.01,US,1663116916
kavaratti,10.5669,72.642,80.49,80,40,11.61,IN,1663116918
dikson,73.5069,80.5464,38.3,88,100,21.09,RU,1663116919
portland,45.5234,-122.6762,73.09,58,40,5.99,US,1663116868
severo-kurilsk,50.6789,156.125,51.13,92,100,18.63,RU,1663116923
geraldton,-28.7667,114.6,63.01,67,100,5.75,AU,1663116923
visalia,36.3302,-119.2921,92.95,26,0,6.91,US,1663116925
new norfolk,-42.7826,147.0587,53.1,59,5,1.01,AU,1663116927
belaya gora,68.5333,146.4167,48.0,42,69,8.61,RU,1663116928
jardim,-21.4803,-56.1381,70.66,56,100,8.93,BR,1663116929
namatanai,-3.6667,152.4333,84.96,65,50,9.55,PG,1663116930
hilo,19.7297,-155.09,84.27,87,76,4.0,US,1663116834
samarai,-10.6167,150.6667,80.8,81,25,11.68,PG,1663116932
mataura,-46.1927,168.8643,48.47,74,91,5.23,NZ,1663116932
carnarvon,-24.8667,113.6333,65.62,53,54,16.91,AU,1663116933
bluff,-46.6,168.3333,48.79,68,78,11.92,NZ,1663116934
freeport,40.6576,-73.5832,78.03,54,0,10.0,US,1663116935
kuala terengganu,5.3302,103.1408,75.15,94,20,2.3,MY,1663116940
kaitangata,-46.2817,169.8464,49.3,59,73,8.28,NZ,1663116941
norman wells,65.282,-126.8329,60.84,55,75,6.91,CA,1663116941
torbay,47.6666,-52.7314,56.75,96,100,17.27,CA,1663116942
albany,42.6001,-73.9662,63.59,87,60,3.0,US,1663116943
ilulissat,69.2167,-51.1,40.1,85,100,5.64,GL,1663116944
ust-kuyga,70.0167,135.6,37.27,97,100,1.9,RU,1663116944
khatanga,71.9667,102.5,33.84,99,100,8.16,RU,1663116946
seminole,28.7086,-81.2081,82.76,86,0,0.0,US,1663116729
sumbe,-11.2061,13.8437,71.24,89,73,4.63,AO,1663116947
urusha,54.05,122.9,57.79,53,77,6.38,RU,1663116949
avarua,-21.2078,-159.775,80.65,69,75,12.66,CK,1663116950
san jose,37.3394,-121.895,74.91,52,0,14.97,US,1663116826
tallahassee,30.4383,-84.2807,77.68,85,100,4.18,US,1663116893
lishan,31.8576,113.2951,77.72,58,1,11.41,CN,1663116952
dourados,-22.2211,-54.8056,66.31,79,97,13.31,BR,1663116667
ujhani,28.0167,79.0167,78.46,81,96,14.18,IN,1663116954
troitskoye,52.9821,84.6757,39.79,66,7,6.02,RU,1663116955
hambantota,6.1241,81.1185,77.34,100,20,5.75,LK,1663116956
saint-philippe,-21.3585,55.7679,67.59,73,99,0.43,RE,1663116956
castro,-24.7911,-50.0119,60.24,98,100,2.21,BR,1663116958
tasiilaq,65.6145,-37.6368,34.54,86,100,3.38,GL,1663116959
telma,52.6983,103.7097,48.34,68,100,2.19,RU,1663116960
verkhniy mamon,50.1635,40.3832,55.06,90,100,3.09,RU,1663116960
ushuaia,-54.8,-68.3,42.46,81,40,8.05,AR,1663116961
emerald,-23.5333,148.1667,71.35,47,2,11.18,AU,1663116962
lompoc,34.6391,-120.4579,80.56,69,0,8.99,US,1663116963
rocha,-34.4833,-54.3333,48.79,97,5,5.41,UY,1663116964
ampanihy,-24.7,44.75,65.34,68,100,13.6,MG,1663116964
minna,9.6139,6.5569,71.87,94,25,0.38,NG,1663116965
abay,49.6311,72.8539,28.78,54,8,7.38,KZ,1663116966
robertsport,6.7533,-11.3686,77.72,83,100,10.83,LR,1663116967
hasaki,35.7333,140.8333,82.8,82,85,12.84,JP,1663116968
teguldet,57.3064,88.1667,38.7,78,21,1.32,RU,1663116969
marawi,7.9986,124.2928,79.74,66,51,4.36,PH,1663116970
ancud,-41.8697,-73.8203,51.22,87,100,17.85,CL,1663116971
faanui,-16.4833,-151.75,78.62,74,100,21.16,PF,1663116971
tres passos,-27.4556,-53.9319,52.92,87,3,4.83,BR,1663116972
vilyuysk,63.7553,121.6247,40.23,77,71,13.02,RU,1663116973
faya,18.3851,42.4509,66.31,48,100,0.83,SA,1663116974
qaanaaq,77.484,-69.3632,34.29,72,92,4.68,GL,1663116975
longyearbyen,78.2186,15.6401,35.44,75,75,2.3,SJ,1663116977
havelock,34.8791,-76.9013,84.15,89,90,4.27,US,1663116978
pedernales,18.0384,-71.744,82.13,74,100,6.11,DO,1663116980
cape town,-33.9258,18.4232,60.12,79,0,3.0,ZA,1663116981
bethel,41.3712,-73.414,74.64,85,0,1.01,US,1663116982
port blair,11.6667,92.75,80.64,83,40,2.3,IN,1663116983
beringovskiy,63.05,179.3167,43.97,83,100,5.23,RU,1663116984
nyagan,62.1406,65.3936,47.05,84,99,7.49,RU,1663116984
airai,-8.9266,125.4092,74.07,36,78,6.17,TL,1663116985
abalak,58.1286,68.5944,45.39,85,100,4.79,RU,1663116986
gikongoro,-2.464,29.5739,58.5,93,100,1.92,RW,1663116987
tilichiki,60.4667,166.1,43.7,79,100,3.04,RU,1663116988
pevek,69.7008,170.3133,33.98,99,100,5.59,RU,1663116989
upernavik,72.7868,-56.1549,42.48,85,100,5.44,GL,1663116990
bredasdorp,-34.5322,20.0403,49.32,93,0,4.38,ZA,1663116990
tiksi,71.6872,128.8694,41.97,75,97,5.28,RU,1663116991
lakatoro,-16.0999,167.4164,83.07,63,56,9.13,VU,1663116992
puri,19.8,85.85,81.12,81,100,20.09,IN,1663116993
salalah,17.0151,54.0924,77.74,87,95,4.63,OM,1663116994
rock sound,24.9,-76.2,83.95,69,10,3.53,BS,1663116994
aksarka,66.5606,67.7975,42.76,90,100,7.61,RU,1663116996
makakilo city,21.3469,-158.0858,85.57,56,60,14.65,US,1663116997
koslan,63.4564,48.8989,47.37,95,100,5.41,RU,1663116998
san quintin,30.4833,-115.95,73.56,81,91,10.54,MX,1663116998
clyde river,70.4692,-68.5914,37.63,100,100,17.27,CA,1663116999
mandali,33.7499,45.5541,88.38,14,0,2.84,IQ,1663117000
caravelas,-17.7125,-39.2481,72.52,80,5,9.75,BR,1663117001
barabinsk,55.3571,78.357,39.78,75,35,1.52,RU,1663117002
lososina,48.9975,140.3106,58.3,41,7,4.32,RU,1663117003
ribeira grande,38.5167,-28.7,75.43,88,13,11.99,PT,1663117005
atuona,-9.8,-139.0333,76.55,69,0,12.48,PF,1663117006
malia,35.2833,25.4667,75.81,75,0,7.74,GR,1663117007
victoria,22.2855,114.1577,92.25,45,37,11.01,HK,1663117008
niquero,20.0431,-77.5828,79.36,82,5,8.32,CU,1663117008
doha,25.2867,51.5333,89.49,79,0,5.75,QA,1663117010
loa janan,-0.583,117.095,72.91,99,100,1.83,ID,1663117011
acajutla,13.5928,-89.8275,79.99,84,100,7.85,SV,1663117011
teahupoo,-17.8333,-149.2667,76.96,74,100,19.91,PF,1663117012
pitimbu,-7.4706,-34.8086,73.99,86,56,9.42,BR,1663117013
zuenoula,7.4292,-6.0431,70.86,98,100,3.22,CI,1663117014
thompson,55.7435,-97.8558,53.76,50,75,3.44,CA,1663117015
superior,46.7208,-92.1041,68.47,79,0,20.71,US,1663116784
prusanky,48.8284,16.9807,60.8,71,41,3.47,CZ,1663117016
tlaltenango,19.1667,-98.3333,60.28,84,90,1.95,MX,1663117017
escanaba,45.7453,-87.0646,63.95,84,7,1.99,US,1663117018
saskylakh,71.9167,114.0833,34.65,82,91,9.75,RU,1663117018
tura,25.5198,90.2201,72.16,95,100,4.09,IN,1663117020
vao,-22.6667,167.4833,72.32,71,63,11.01,NC,1663117021
talnakh,69.4865,88.3972,33.3,92,98,6.93,RU,1663117021
benoy,8.9833,16.3199,70.39,92,100,3.96,TD,1663117022
port lincoln,-34.7333,135.8667,62.44,76,100,15.59,AU,1663117023
aleksandrov gay,50.147,48.5704,60.67,48,100,8.88,RU,1663117024
saint-gaudens,43.0833,0.6667,65.01,75,100,7.2,FR,1663117024
bac lieu,9.285,105.7244,82.6,78,17,10.85,VN,1663117025
standerton,-26.9337,29.2415,49.6,78,89,5.3,ZA,1663117026
sao sepe,-30.1606,-53.5653,56.25,84,95,7.31,BR,1663117028
tommot,58.9564,126.2925,42.04,90,100,18.16,RU,1663117029
ponta do sol,32.6667,-17.1,72.72,80,39,8.97,PT,1663117030
hermagor,46.6272,13.3672,62.91,100,100,1.99,AT,1663117002
petropavlovsk-kamchatskiy,53.0452,158.6483,57.79,67,75,11.18,RU,1663117031
fortuna,40.5982,-124.1573,70.93,64,16,4.0,US,1663117033
sambava,-14.2667,50.1667,69.57,84,85,9.91,MG,1663117034
andenes,69.3143,16.1194,46.38,81,100,34.52,NO,1663117035
gizo,-8.103,156.8419,82.83,72,52,4.12,SB,1663117035
staryy nadym,65.6118,72.6842,44.15,95,99,6.44,RU,1663117036
eureka,40.8021,-124.1637,73.74,81,25,3.0,US,1663117037
muli,2.9167,73.5667,80.58,73,12,2.93,MV,1663117038
mehamn,71.0357,27.8492,40.91,70,75,4.61,NO,1663117040
tutoia,-2.7619,-42.2744,78.73,84,6,12.17,BR,1663117042
esperance,-33.8667,121.9,53.44,68,91,28.32,AU,1663117043
francisco beltrao,-26.0811,-53.055,60.55,90,100,0.87,BR,1663117044
la ronge,55.1001,-105.2842,62.82,48,75,5.75,CA,1663117044
chapais,49.7834,-74.8492,58.78,97,100,3.6,CA,1663117045
rabo de peixe,37.8,-25.5833,72.91,94,40,6.91,PT,1663117047
harper,4.375,-7.7169,75.61,87,100,9.22,LR,1663117048
souillac,-20.5167,57.5167,66.58,94,75,3.44,MU,1663117048
catuday,16.2923,119.8062,81.72,73,57,6.87,PH,1663117049
mount isa,-20.7333,139.5,83.97,26,0,6.91,AU,1663116824
lavrentiya,65.5833,-171.0,44.91,92,100,2.17,RU,1663117051
nuuk,64.1835,-51.7216,45.88,81,100,15.01,GL,1663117051
iqaluit,63.7506,-68.5145,44.33,75,75,9.22,CA,1663117052
yumen,40.2833,97.2,67.05,24,0,7.52,CN,1663117053
hoquiam,46.9809,-123.8893,66.85,86,100,11.5,US,1663116975
axim,4.8699,-2.2405,73.8,93,83,5.97,GH,1663117055
cayenne,4.9333,-52.3333,80.64,89,0,3.44,GF,1663116929
ipora,-16.4419,-51.1178,81.32,22,3,3.36,BR,1663117057
borovoy,55.4333,86.0833,34.88,93,0,11.18,RU,1663117057
margate,51.3813,1.3862,60.91,91,100,1.01,GB,1663117058
half moon bay,37.4636,-122.4286,74.03,70,100,12.66,US,1663117059
leningradskiy,69.3833,178.4167,35.73,99,100,5.59,RU,1663117061
hobyo,5.3505,48.5268,76.35,87,95,22.15,SO,1663117063
dryden,49.7833,-92.7503,53.89,58,0,5.75,CA,1663117064
san giovanni in fiore,39.2633,16.6996,59.05,37,0,5.41,IT,1663117065
touros,-5.1989,-35.4608,75.63,85,25,12.28,BR,1663117066
brus,43.3836,21.0336,54.63,68,6,4.59,RS,1663117067
fremont,37.5483,-121.9886,75.02,62,0,14.97,US,1663116821
watertown,42.3709,-71.1828,73.9,91,100,9.22,US,1663116934
imeni zhelyabova,58.9544,36.5956,43.75,90,94,5.57,RU,1663117069
kahului,20.8947,-156.47,84.97,77,57,8.01,US,1663117070
sangar,63.9242,127.4739,41.45,96,100,12.82,RU,1663117071
qandala,11.472,49.8728,90.75,49,100,4.12,SO,1663117072
moussoro,13.6408,16.4901,82.87,66,29,8.25,TD,1663117072
plouzane,48.3833,-4.6167,66.25,97,0,6.91,FR,1663117073
klaksvik,62.2266,-6.589,49.12,84,90,11.39,FO,1663117074
gambiran,-6.7988,111.4951,80.76,68,40,9.31,ID,1663117075
bonthe,7.5264,-12.505,76.46,86,100,6.93,SL,1663117076
mineiros,-17.5694,-52.5511,81.81,28,92,4.03,BR,1663117077
kyra,49.5776,111.9753,53.64,71,100,3.04,RU,1663117077
port macquarie,-31.4333,152.9167,61.9,61,27,6.29,AU,1663117039
grindavik,63.8424,-22.4338,46.35,87,0,4.61,IS,1663117080
jacareacanga,-6.2222,-57.7528,77.47,64,6,2.68,BR,1663117081
ambovombe,-25.1667,46.0833,66.56,74,100,14.94,MG,1663117082
capoterra,39.1763,8.9718,77.54,83,0,8.05,IT,1663117083
chuy,-33.6971,-53.4616,51.94,95,6,8.05,UY,1663117084
ostrovnoy,68.0531,39.5131,47.53,85,100,18.86,RU,1663117085
talaya,61.3833,152.75,42.49,57,12,4.5,RU,1663117085
nizhneangarsk,55.7833,109.55,44.53,64,100,5.88,RU,1663117086
itaituba,-4.2761,-55.9836,76.12,75,47,2.44,BR,1663117087
hithadhoo,-0.6,73.0833,81.14,70,0,5.3,MV,1663117091
vila velha,-20.3297,-40.2925,75.15,81,0,12.66,BR,1663117092
isangel,-19.55,169.2667,82.51,78,75,5.75,VU,1663117093
juneau,58.3019,-134.4197,53.22,99,100,3.89,US,1663117094
yar-sale,66.8333,70.8333,43.52,96,100,7.72,RU,1663117095
antofagasta,-23.65,-70.4,56.48,68,0,8.08,CL,1663117096
lebu,-37.6167,-73.65,48.67,84,86,2.35,CL,1663117096
yellowknife,62.456,-114.3525,59.52,63,75,6.91,CA,1663116881
bonavista,48.6499,-53.1147,56.28,95,100,21.14,CA,1663117098
east london,-33.0153,27.9116,58.33,74,0,8.72,ZA,1663117101
katsuura,35.1333,140.3,84.22,75,16,13.31,JP,1663117101
kayerkan,69.3497,87.7602,31.82,92,90,13.31,RU,1663117102
kodiak,57.79,-152.4072,50.2,86,100,3.18,US,1663117103
mecca,21.4267,39.8261,89.98,40,89,3.27,SA,1663117013
achacachi,-16.05,-68.6833,44.46,82,13,10.63,BO,1663117105
biltine,14.5333,20.9167,80.73,68,100,6.29,TD,1663117106
dalvik,65.9702,-18.5286,44.53,95,100,8.32,IS,1663117106
alenquer,-1.9417,-54.7383,77.29,70,11,2.75,BR,1663116945
zalantun,48.0,122.7167,68.81,42,69,3.2,CN,1663117108
arraial do cabo,-22.9661,-42.0278,70.61,82,98,19.28,BR,1663116813
burkburnett,34.0979,-98.5706,88.05,45,0,1.99,US,1663117110
merritt,50.1123,-120.7942,73.96,43,86,4.0,CA,1663117111
cervo,43.6702,-7.4101,62.96,87,100,5.21,ES,1663117112
toowoomba,-27.55,151.9667,62.26,65,57,1.99,AU,1663117112
marsa matruh,31.3525,27.2453,75.4,73,40,5.75,EG,1663117113
kuruman,-27.4524,23.4325,55.99,65,0,9.31,ZA,1663117114
cabo san lucas,22.8909,-109.9124,84.18,78,30,7.96,MX,1663116982
olbia,40.9214,9.4856,73.45,83,0,2.3,IT,1663117116
porto velho,-8.7619,-63.9039,80.65,83,0,4.61,BR,1663116959
hay river,60.8156,-115.7999,58.98,58,75,9.22,CA,1663117117
diego de almagro,-26.3667,-70.05,49.44,44,0,2.66,CL,1663117118
kyren,51.6828,102.1408,44.08,97,100,2.19,RU,1663117122
kenai,60.5544,-151.2583,55.09,88,100,5.77,US,1663117083
kongwa,-6.2,36.4167,59.7,86,81,3.85,TZ,1663117123
petatlan,17.5167,-101.2667,77.83,88,95,2.13,MX,1663117124
borovichi,58.3878,33.9155,49.39,72,100,4.74,RU,1663117126
pisco,-13.7,-76.2167,61.02,82,72,12.66,PE,1663117127
rundu,-17.9333,19.7667,65.37,20,0,7.0,NA,1663117127
lac du bonnet,50.2536,-96.0612,51.31,60,36,5.91,CA,1663117088
dicabisagan,17.0818,122.4157,86.4,64,91,0.72,PH,1663117129
puerto escondido,15.85,-97.0667,78.82,84,100,2.66,MX,1663117129
coria,39.9879,-6.5377,64.45,80,99,3.98,ES,1663117130
comodoro rivadavia,-45.8667,-67.5,60.66,39,0,13.8,AR,1663117131
yaval,21.1667,75.7,74.59,97,100,3.51,IN,1663117132
tautira,-17.7333,-149.15,77.41,73,100,19.51,PF,1663117134
san cristobal,7.7669,-72.225,75.38,97,100,1.5,VE,1663117135
sitka,57.0531,-135.33,60.69,72,100,8.05,US,1663117136
aranos,-24.1333,19.1167,58.44,13,0,12.44,NA,1663117136
vardo,70.3705,31.1107,44.58,76,100,10.36,NO,1663117137
coahuayana,18.7333,-103.6833,78.46,88,100,2.46,MX,1663117138
nara,34.6851,135.8049,85.91,62,100,5.3,JP,1663117139
kirakira,-10.4544,161.9205,84.04,72,91,7.43,SB,1663117140
alta floresta,-9.8756,-56.0861,83.03,40,93,4.41,BR,1663117142
anadyr,64.75,177.4833,43.3,100,75,2.24,RU,1663117143
carutapera,-1.195,-46.02,77.63,84,4,6.31,BR,1663117144
georgetown,5.4112,100.3354,80.89,90,40,9.22,MY,1663117135
codrington,-38.2667,141.9667,57.6,62,10,15.21,AU,1663117145
golaghat,26.5167,93.9667,76.26,90,100,3.74,IN,1663117146
deputatskiy,69.3,139.9,37.15,64,100,3.85,RU,1663117147
chifeng,42.2683,118.9636,68.38,54,0,1.57,CN,1663117147
palmer,42.1584,-72.3287,71.92,85,75,0.0,US,1663116921
bermeo,43.4209,-2.7215,77.2,65,100,13.04,ES,1663117149
kloulklubed,7.0419,134.2556,84.65,65,12,10.51,PW,1663117149
bukachacha,52.9833,116.9167,52.74,49,100,3.27,RU,1663117150
pochutla,15.7432,-96.4661,74.82,90,100,4.25,MX,1663117151
bonaventure,48.0457,-65.4926,66.78,94,100,3.44,CA,1663117153
senneterre,48.3835,-77.2328,59.36,96,100,3.98,CA,1663117154
laguna,38.421,-121.4238,81.45,48,0,18.41,US,1663117155
flinders,-34.5833,150.8552,64.18,57,21,5.01,AU,1663117156
karlskrona,56.1616,15.5866,57.65,80,99,18.41,SE,1663117157
waipawa,-41.4122,175.5153,41.94,87,100,12.48,NZ,1663117158
batemans bay,-35.7167,150.1833,58.1,56,66,4.68,AU,1663117159
kavieng,-2.5744,150.7967,85.03,66,86,15.5,PG,1663117159
lodja,-3.4833,23.4333,69.28,97,98,1.77,CD,1663117161
muros,42.7762,-9.0603,68.09,91,80,19.64,ES,1663117162
saldanha,-33.0117,17.9442,57.25,61,0,6.62,ZA,1663117163
namanyere,-7.5167,31.05,64.6,54,39,7.07,TZ,1663117164
hangal,14.7667,75.1333,69.46,95,97,9.35,IN,1663117165
qui nhon,13.7667,109.2333,81.5,80,100,4.0,VN,1663117117
asau,46.4333,26.4,49.28,91,91,5.77,RO,1663117166
maragogi,-9.0122,-35.2225,73.6,85,42,4.74,BR,1663117170
rovaniemi,66.5,25.7167,47.61,93,75,5.75,FI,1663117172
camacha,33.0833,-16.3333,71.02,78,20,10.36,PT,1663117173
tailai,46.3833,123.4,66.9,37,0,9.46,CN,1663117173
tondi,9.7333,79.0167,81.25,76,100,11.01,IN,1663117176
linjiang,41.8069,126.9078,70.02,75,100,1.92,CN,1663117176
ridgecrest,35.6225,-117.6709,88.68,23,6,13.0,US,1663117168
port elizabeth,-33.918,25.5701,53.31,98,3,2.3,ZA,1663117178
nyurba,63.2842,118.3319,41.02,82,97,9.46,RU,1663117179
kruisfontein,-34.0033,24.7314,50.76,87,0,5.46,ZA,1663117180
koumac,-20.5667,164.2833,77.09,69,27,10.13,NC,1663117180
shingu,33.7333,135.9833,83.5,75,100,9.93,JP,1663117181
kaeo,-35.1,173.7833,63.32,77,100,3.2,NZ,1663117182
sao filipe,14.8961,-24.4956,79.09,83,77,5.88,CV,1663117184
sao jose da coroa grande,-8.8978,-35.1478,74.05,85,41,5.41,BR,1663117185
batagay-alyta,67.8006,130.4114,36.28,86,100,2.44,RU,1663117186
pedasi,7.5333,-80.0333,77.07,88,100,9.82,PA,1663117187
kudat,6.8837,116.8477,82.33,83,20,9.22,MY,1663117188
rebrikha,53.0733,82.3408,38.95,71,6,6.73,RU,1663117189
santa rosalia,27.3167,-112.2833,84.0,55,13,1.21,MX,1663117190
aljezur,37.3191,-8.8033,67.37,91,3,10.54,PT,1663117190
olafsvik,64.8945,-23.7142,46.22,77,42,11.21,IS,1663117040
marystown,47.1666,-55.1483,56.19,87,1,6.69,CA,1663117192
narsaq,60.9167,-46.05,45.79,71,5,2.68,GL,1663117192
keetmanshoop,-26.5833,18.1333,61.25,8,3,8.9,NA,1663117193
constitucion,-35.3333,-72.4167,48.31,87,0,4.7,CL,1663117194
saint anthony,45.0205,-93.218,72.14,61,100,3.06,US,1663117196
gorontalo,0.5412,123.0595,82.94,65,94,3.6,ID,1663117098
concarneau,47.875,-3.9225,68.83,94,17,5.93,FR,1663117197
vostok,46.4856,135.8833,58.15,48,0,2.77,RU,1663117198
kontagora,10.3999,5.4695,71.92,94,17,0.85,NG,1663117198
hofn,64.2539,-15.2082,48.7,70,20,11.81,IS,1663117199
oktyabrskoye,43.0645,44.7417,59.14,100,100,4.47,RU,1663117201
ankang,32.68,109.0172,68.76,70,100,1.77,CN,1663117201
vicosa do ceara,-3.5622,-41.0922,66.88,79,6,3.04,BR,1663117203
cossato,45.5739,8.1817,72.95,75,100,1.68,IT,1663117204
sioux lookout,50.1001,-91.917,49.35,52,2,5.35,CA,1663117205
warrington,53.3925,-2.5802,56.26,92,40,3.44,GB,1663117207
biak,-0.9131,122.8766,79.56,72,84,9.04,ID,1663117208
mathathane,-22.2687,28.7495,59.5,86,11,12.15,BW,1663117208
lorengau,-2.0226,147.2712,85.53,64,95,12.8,PG,1663117210
masumbwe,-3.6333,32.1833,68.7,74,92,3.94,TZ,1663117211
aguililla,18.7333,-102.7333,67.75,96,100,4.41,MX,1663117212
saint-denis,48.9167,2.3333,71.38,86,0,5.75,FR,1663117213
kuznetsk,53.1167,46.6004,51.21,90,100,11.45,RU,1663117214
suntar,62.1444,117.6319,44.02,76,48,10.56,RU,1663117215
provideniya,64.3833,-173.3,48.36,93,100,7.0,RU,1663117216
gaziantep,37.0594,37.3825,69.73,60,20,11.5,TR,1663117206
lahij,13.1667,44.5833,84.96,49,100,12.93,YE,1663117217
tuban,-6.8976,112.0649,81.64,68,5,9.62,ID,1663117218
manguito,22.5881,-80.9144,77.5,84,97,3.04,CU,1663117219
imbituba,-28.24,-48.6703,67.86,89,46,4.88,BR,1663117220
disna,55.568,28.1971,49.3,85,100,5.32,BY,1663117221
verkhnyaya balkariya,43.1279,43.4573,54.72,94,100,7.09,RU,1663117224
prince rupert,54.3161,-130.3201,60.89,80,0,13.8,CA,1663117182
cangas,42.2641,-8.7846,69.01,89,75,10.36,ES,1663117226
nouna,12.7333,-3.8667,75.6,82,6,5.59,BF,1663117226
anloga,5.7947,0.8973,76.01,89,64,12.17,GH,1663117228
erechim,-27.6342,-52.2739,49.1,90,27,4.47,BR,1663117228
dunedin,-45.8742,170.5036,47.8,67,54,5.01,NZ,1663117230
sistranda,63.7256,8.834,51.76,86,100,24.96,NO,1663117231
ust-tsilma,65.441,52.1498,42.73,98,96,4.61,RU,1663117232
itoman,26.1247,127.6694,86.77,76,40,10.36,JP,1663117233
yarada,17.65,83.2667,79.12,94,75,2.3,IN,1663117234
ahuimanu,21.4447,-157.8378,86.76,65,35,3.0,US,1663117234
daverdisse,50.0167,5.1167,63.43,93,100,4.14,BE,1663117235
kieta,-6.2167,155.6333,84.07,70,100,4.63,PG,1663117236
gejiu,23.306,103.1635,59.13,86,14,2.91,CN,1663117238
maceio,-9.6658,-35.7353,72.84,94,75,2.3,BR,1663117240
dwarka,22.2394,68.9678,81.9,86,100,14.97,IN,1663117241
guanare,9.0418,-69.7421,73.63,94,91,3.31,VE,1663117242
ponta delgada,37.7333,-25.6667,74.12,94,40,6.91,PT,1663117244
matata,-37.8833,176.75,62.96,48,100,7.43,NZ,1663117245
malanje,-9.5402,16.341,64.96,83,68,5.88,AO,1663117246
los llanos de aridane,28.6585,-17.9182,69.55,87,0,3.0,ES,1663117247
aksu,41.1231,80.2644,68.11,33,0,4.36,CN,1663117226
jatai,-17.8814,-51.7144,83.16,28,50,2.33,BR,1663117248
grimshaw,56.1834,-117.6027,64.42,38,0,4.88,CA,1663117249
ahipara,-35.1667,173.1667,58.48,65,87,9.19,NZ,1663117250
eastlake,41.6539,-81.4504,67.21,75,75,10.36,US,1663117252
oparino,59.8518,48.2783,40.64,92,15,5.01,RU,1663117252
lasem,-6.6922,111.4527,81.45,69,57,9.6,ID,1663117253
kabalo,-6.05,26.9167,72.45,82,100,2.48,CD,1663117256
bandar-e lengeh,26.5579,54.8807,88.39,65,0,8.01,IR,1663117257
nalut,30.3333,10.85,79.09,31,0,11.99,LY,1663117258
tala,30.6803,30.9429,69.58,72,0,4.94,EG,1663117174
marquette,46.5333,-87.6335,59.34,85,75,8.14,US,1663117086
veraval,20.9,70.3667,79.39,87,100,4.29,IN,1663117260
guerrero negro,27.9769,-114.0611,75.88,69,0,13.42,MX,1663117261
port-cartier,50.0334,-66.8654,59.76,99,100,5.5,CA,1663117262
zig,40.127,-92.7663,68.16,66,0,5.35,US,1663117263
upington,-28.4478,21.2561,58.46,33,0,10.0,ZA,1663117265
baruun-urt,46.6806,113.2792,66.22,44,100,7.52,MN,1663117266
tay ninh,11.3,106.1,82.11,81,55,6.73,VN,1663117132
iralaya,15.0,-83.2333,81.43,78,12,7.25,HN,1663117267
grants,35.1473,-107.8514,62.83,55,40,4.61,US,1663117268
cap malheureux,-19.9842,57.6142,69.48,75,90,3.0,MU,1663117269
chunoyar,57.4467,97.3217,41.25,69,22,2.35,RU,1663117271
mumford,5.2618,-0.759,73.96,93,67,8.95,GH,1663117272
gornopravdinsk,60.05,69.9,42.06,97,100,5.66,RU,1663117276
netarhat,23.4833,84.2667,67.78,96,100,3.2,IN,1663117280
nishihara,26.1842,127.7558,86.05,77,40,10.36,JP,1663117282
high level,58.5169,-117.136,61.45,36,0,1.05,CA,1663117283
wanaka,-44.7,169.15,47.1,43,3,4.0,NZ,1663117284
bawku,11.0616,-0.2417,73.27,88,12,2.98,GH,1663117284
miri,4.4148,114.0089,79.45,85,96,4.03,MY,1663117286
paamiut,61.994,-49.6678,43.29,81,9,9.51,GL,1663117287
marzuq,14.4,46.4667,83.44,37,99,5.03,YE,1663117289
yulara,-25.2406,130.9889,77.76,30,18,15.28,AU,1663117290
addis abeba,9.025,38.7469,55.35,92,100,1.43,ET,1663117291
te anau,-45.4167,167.7167,44.28,78,33,1.07,NZ,1663117292
toul,48.6667,5.9167,70.09,90,100,12.66,FR,1663117292
santiago,-33.4569,-70.6483,54.86,66,0,6.91,CL,1663117198
nichinan,31.6,131.3667,81.55,85,48,14.25,JP,1663117294
rawson,-43.3002,-65.1023,58.62,44,15,16.22,AR,1663117295
port hedland,-20.3167,118.5667,78.85,50,0,12.66,AU,1663117296
san patricio,28.017,-97.5169,84.85,60,4,7.81,US,1663117297
samfya,-11.3649,29.5565,66.81,45,54,10.0,ZM,1663117298
saint george,37.1041,-113.5841,77.63,59,72,3.0,US,1663117189
bako,5.7833,36.5667,61.02,87,100,3.27,ET,1663117299
springdale,36.1867,-94.1288,75.31,56,0,4.61,US,1663117155
jagatsinghapur,20.2667,86.1667,80.96,88,100,10.76,IN,1663117300
darhan,49.4867,105.9228,52.59,57,100,8.16,MN,1663117301
kamloops,50.6665,-120.3192,69.75,49,18,2.46,CA,1663117202
micheweni,-4.9667,39.8333,73.08,86,16,9.15,TZ,1663117304
cassilandia,-19.1133,-51.7342,85.33,27,43,3.33,BR,1663117305
kiunga,-6.1219,141.2906,83.03,72,93,2.53,PG,1663117306
awjilah,29.1081,21.2869,76.14,42,0,11.92,LY,1663117308
barbastro,42.0356,0.1269,66.74,88,100,6.58,ES,1663117309
sobolevo,54.4299,31.8996,45.82,97,100,4.63,RU,1663117310
tuzha,57.6062,47.936,45.59,71,100,8.3,RU,1663117311
cabras,39.93,8.5314,74.17,76,97,9.17,IT,1663117312
lagoa,39.05,-27.9833,74.07,88,47,13.4,PT,1663117313
pontal do parana,-25.6533,-48.5128,64.56,96,100,7.9,BR,1663117314
sirnak,37.5228,42.4594,63.59,46,0,4.09,TR,1663117315
vestmannaeyjar,63.4427,-20.2734,48.29,74,0,19.13,IS,1663117316
skjervoy,70.0311,20.9714,44.6,74,100,12.33,NO,1663117318
chahuites,16.2833,-94.1833,78.31,84,88,1.79,MX,1663117319
chiredzi,-21.05,31.6667,65.53,85,100,9.22,ZW,1663117320
arman,59.7,150.1667,53.02,46,100,2.86,RU,1663117321
nakamura,32.9833,132.9333,84.38,72,97,7.2,JP,1663117321
devonport,-41.1667,146.35,54.09,63,74,9.17,AU,1663117323
bosaso,11.2842,49.1816,92.8,40,100,16.71,SO,1663117323
umred,20.85,79.3333,77.29,97,100,5.79,IN,1663117324
mokrous,51.2333,47.5167,53.74,79,100,11.21,RU,1663117326
san juan,-31.5375,-68.5364,60.78,30,11,9.82,AR,1663117242
chokurdakh,70.6333,147.9167,43.68,53,84,10.31,RU,1663117328
sola,-13.8833,167.55,79.72,78,15,15.59,VU,1663117329
petropavlovka,50.6114,105.3196,54.05,52,100,9.33,RU,1663117330
francistown,-21.17,27.5079,57.76,85,0,16.26,BW,1663117331
bullhead city,35.1478,-114.5683,92.86,34,25,7.0,US,1663117282
sosva,59.1766,61.8558,39.7,93,21,5.14,RU,1663117332
carpinis,45.7872,20.9042,55.06,52,100,7.14,RO,1663117333
sladkovo,55.5284,70.3385,48.07,65,100,4.16,RU,1663117334
puerto madero,14.7208,-92.4215,80.51,80,100,6.26,MX,1663117335
ewo,-0.8725,14.8206,74.35,75,100,4.65,CG,1663117336
pontes e lacerda,-15.2261,-59.3353,85.06,36,71,1.45,BR,1663117218
alofi,-19.0595,-169.9187,76.93,73,0,18.86,NU,1663117338
hami,42.8,93.45,67.19,20,0,4.14,CN,1663117339
kumta,14.4167,74.4,77.23,91,100,9.35,IN,1663117340
henties bay,-22.116,14.2845,56.46,93,1,9.95,NA,1663117341
uige,-7.6087,15.0613,66.9,87,95,3.06,AO,1663117342
chapleau,47.8405,-83.4034,56.91,74,0,11.39,CA,1663117343
santa isabel,-23.3156,-46.2214,69.21,67,100,3.6,BR,1663117344
manokwari,-0.8667,134.0833,83.19,70,98,12.37,ID,1663117345
norfolk,42.1668,-71.2495,73.6,94,21,1.99,US,1663117345
daru,-9.0763,143.2092,81.99,80,36,15.68,PG,1663117346
noumea,-22.2763,166.4572,77.0,99,98,8.59,NC,1663117347
okhotsk,59.3833,143.3,52.54,60,100,15.52,RU,1663117348
port hardy,50.6996,-127.4199,58.12,81,19,7.54,CA,1663117237
erenhot,43.6475,111.9767,72.77,34,5,7.05,CN,1663117350
capim grosso,-11.3811,-40.0128,70.41,76,10,10.33,BR,1663117351
pinega,64.7001,43.3936,47.97,89,100,5.41,RU,1663117352
kalianget,-7.05,113.9333,82.78,65,25,9.04,ID,1663117355
serebryansk,49.6925,83.2892,42.3,69,100,2.98,KZ,1663117356
praia da vitoria,38.7333,-27.0667,74.75,96,9,5.03,PT,1663117357
manohar thana,24.24,76.8018,74.35,98,98,4.34,IN,1663117357
khovu-aksy,51.1333,93.6,44.46,60,7,1.28,RU,1663117358
mnogovershinnyy,53.9353,139.9242,45.77,59,100,9.78,RU,1663117360
inyonga,-6.7167,32.0667,72.52,41,97,8.46,TZ,1663117361
nemuro,43.3236,145.575,58.73,72,88,27.49,JP,1663117362
roald,62.5833,6.1333,57.76,87,40,9.22,NO,1663117363
villa carlos paz,-31.4241,-64.4978,59.4,29,58,5.99,AR,1663117364
gat,31.61,34.7642,76.41,100,21,4.83,IL,1663117365
shirokiy,49.758,129.523,58.23,63,100,9.86,RU,1663117365
boyuibe,-20.4167,-63.2833,59.99,41,68,0.25,BO,1663117366
kalmunai,7.4167,81.8167,77.76,84,100,6.85,LK,1663117367
ballina,-28.8667,153.5667,68.02,68,34,11.32,AU,1663117368
khorinsk,52.1657,109.7726,52.23,48,100,2.21,RU,1663117369
tirlyanskiy,54.2109,58.5806,38.53,81,99,1.01,RU,1663117370
meulaboh,4.1363,96.1285,76.91,85,92,2.53,ID,1663117371
komsomolskiy,40.4272,71.7189,59.72,67,0,6.91,UZ,1663117372
chegdomyn,51.1167,133.0167,57.69,60,100,6.42,RU,1663117373
vaitape,-16.5167,-151.75,78.6,74,100,21.21,PF,1663117374
yerbogachen,61.2767,108.0108,41.9,78,22,8.81,RU,1663117375
matara,5.9485,80.5353,76.77,90,30,6.08,LK,1663117375
aquiraz,-3.9014,-38.3911,80.69,87,26,12.24,BR,1663117190
marfino,55.7028,37.3822,50.34,85,100,11.18,RU,1663117377
mweka,-4.85,21.5667,68.5,94,100,1.68,CD,1663117378
kholm-zhirkovskiy,55.5189,33.4731,45.68,97,100,7.45,RU,1663117378
walvis bay,-22.9575,14.5053,56.08,93,4,9.33,NA,1663117379
cece,46.7706,18.6283,60.39,64,69,6.53,HU,1663117380
boa vista,2.8197,-60.6733,80.58,78,20,3.44,BR,1663117125
rameswaram,9.2833,79.3,80.58,84,74,23.09,IN,1663117382
honningsvag,70.9821,25.9704,38.95,70,100,4.61,NO,1663117383
eruwa,7.5333,3.4167,71.44,98,100,2.57,NG,1663117384
vangaindrano,-23.35,47.6,67.66,88,100,2.06,MG,1663117384
gravdal,68.1214,13.5031,47.68,78,100,21.09,NO,1663117385
fort nelson,58.8053,-122.7002,67.14,37,0,1.3,CA,1663117235
azacualpa,15.3433,-88.5514,74.14,98,96,1.01,HN,1663117388
zlitan,32.4674,14.5687,76.01,71,0,4.36,LY,1663117389
mouzouras,35.5333,24.15,68.0,83,0,0.0,GR,1663117389
grenaa,56.4158,10.8783,57.42,86,72,26.71,DK,1663117390
gotsu,35.0,132.2167,81.61,74,100,9.17,JP,1663117391
shiyan,32.6475,110.7781,75.6,54,91,1.43,CN,1663117222
baiao,-2.7906,-49.6717,74.93,86,18,3.85,BR,1663117392
matias romero,16.8833,-95.0333,72.7,93,38,7.0,MX,1663117235
manzanillo,20.3433,-77.1167,78.78,80,83,2.06,CU,1663117394
port augusta,-32.5,137.7667,70.09,39,100,26.31,AU,1663117395
hirtshals,57.5881,9.9592,58.21,79,4,27.09,DK,1663117396
pangnirtung,66.1451,-65.7125,42.24,98,100,6.78,CA,1663117397
caborca,30.5838,-111.101,84.52,38,0,10.27,MX,1663117397
hirara,24.8,125.2833,82.49,73,92,3.09,JP,1663117399
karratha,-20.7377,116.8463,74.97,33,0,11.77,AU,1663117400
boddam,57.4667,-1.7833,55.78,82,60,14.45,GB,1663117401
sena madureira,-9.0656,-68.6569,76.39,74,13,1.41,BR,1663117401
nouadhibou,20.931,-17.0347,73.9,83,14,17.78,MR,1663117402
hamilton,39.1834,-84.5333,67.57,79,75,6.91,US,1663117403
llallagua,-18.4167,-66.6333,42.53,18,9,8.14,BO,1663117404
dumabato,16.3167,121.7,84.74,63,33,2.39,PH,1663117405
bathsheba,13.2167,-59.5167,82.27,70,53,14.65,BB,1663117405
lasa,46.6166,10.7002,60.37,87,100,3.51,IT,1663117407
general pico,-35.6566,-63.7568,54.19,38,91,5.99,AR,1663117408
kardla,58.9978,22.7492,53.06,91,100,16.58,EE,1663117409
okha,53.5739,142.9478,52.63,53,100,10.47,RU,1663117410
andros town,24.7,-77.7667,78.76,77,100,9.28,BS,1663117412
oron,4.8256,8.2343,73.62,95,100,2.01,NG,1663117413
santarem,-2.4431,-54.7083,78.39,63,41,0.58,BR,1663117414
athabasca,54.7169,-113.2854,68.49,36,6,4.99,CA,1663117235
cologno al serio,45.5821,9.7088,72.99,77,40,2.3,IT,1663117415
whitehorse,60.7161,-135.0538,57.31,51,100,18.01,CA,1663117241
shelburne,44.0787,-80.2041,57.6,81,1,7.56,CA,1663117416
takoradi,4.8845,-1.7554,74.16,93,98,5.99,GH,1663117417
auki,-8.7676,160.7034,83.37,72,90,5.59,SB,1663117418
havre-saint-pierre,50.2334,-63.5986,59.94,88,100,6.08,CA,1663117419
mitsamiouli,-11.3847,43.2844,74.95,73,71,4.41,KM,1663117419
sao joao da barra,-21.6403,-41.0511,71.83,84,77,16.33,BR,1663117420
ordzhonikidze,52.4411,61.7408,47.01,65,62,7.25,KZ,1663117421
wexford,52.3342,-6.4575,55.89,89,4,5.99,IE,1663117422
turka,49.1541,23.0297,54.79,70,100,10.27,UA,1663117423
mpika,-11.8343,31.4529,59.92,54,67,9.71,ZM,1663117424
tiarei,-17.5333,-149.3333,82.42,72,100,21.36,PF,1663117424
buala,-8.145,159.5921,85.95,65,100,6.24,SB,1663117426
chernyshevskiy,63.0128,112.4714,38.25,82,23,9.75,RU,1663117427
dongsheng,39.8161,109.9776,61.7,59,0,12.03,CN,1663117428
port-gentil,-0.7193,8.7815,76.44,82,100,10.02,GA,1663117430
berdigestyakh,62.0989,126.6992,40.37,97,100,17.69,RU,1663117431
tessalit,20.1986,1.0114,91.06,21,86,11.32,ML,1663117432
cuxhaven,53.8718,8.6909,59.2,67,75,9.22,DE,1663117432
poum,-20.2333,164.0167,74.8,77,3,16.31,NC,1663117434
khasan,42.4308,130.6434,63.88,64,100,9.22,RU,1663117434
zhengjiatun,43.5064,123.5064,62.82,54,100,7.25,CN,1663117435
bolshevik,54.0065,27.5692,49.62,89,100,4.36,BY,1663117436
toba,34.4833,136.85,82.4,79,100,4.59,JP,1663117437
gambela,8.25,34.5833,68.67,94,100,2.75,ET,1663117437
ishigaki,24.3448,124.1572,82.06,79,91,10.76,JP,1663117438
wheeling,42.1392,-87.929,70.43,79,0,2.95,US,1663117292
nadym,65.5333,72.5167,43.7,95,96,7.67,RU,1663117439
jalu,29.0331,21.5482,76.86,45,0,15.84,LY,1663117440
shanghai,31.2222,121.4581,77.94,92,75,13.42,CN,1663117440
culpeper,38.5004,-77.9664,70.43,82,100,3.44,US,1663117442
ospitaletto,45.1333,10.6,68.52,90,96,3.27,IT,1663117442
alindao,5.0267,21.2088,69.3,97,81,2.91,CF,1663117444
esmeraldas,-19.7625,-44.3139,74.77,34,31,7.11,BR,1663117444
segou,13.4317,-6.2157,73.33,86,99,9.17,ML,1663117445
straumen,63.8709,11.2999,53.6,97,100,5.01,NO,1663117446
orlik,52.5178,99.825,41.63,93,100,1.28,RU,1663117447
ylojarvi,61.5563,23.5961,49.95,93,75,11.5,FI,1663117448
bedele,8.456,36.353,55.76,99,100,1.83,ET,1663117449
borogontsy,62.6683,131.1683,47.98,90,97,8.99,RU,1663117449
krasnoselkup,65.7,82.4667,40.05,93,100,3.69,RU,1663117451
xining,36.6167,101.7667,58.82,73,86,2.35,CN,1663117452
benghazi,32.1167,20.0667,77.68,66,11,8.95,LY,1663117453
khandyga,62.6667,135.6,44.94,96,100,9.19,RU,1663117454
tiznit,29.5833,-9.5,66.45,88,98,4.54,MA,1663117456
sayansk,54.1088,102.1648,44.19,64,100,4.07,RU,1663117166
praia,14.9215,-23.5087,79.41,87,86,8.59,CV,1663117457
mamaku,-38.1,176.0833,53.6,43,70,5.3,NZ,1663117458
kamaishi,39.2667,141.8833,74.39,69,60,14.25,JP,1663117460
kjollefjord,70.9457,27.3465,39.25,70,75,2.3,NO,1663117461
kudahuvadhoo,2.6708,72.8944,80.91,66,27,2.57,MV,1663117462
bubaque,11.2833,-15.8333,80.65,80,100,9.62,GW,1663117462
leh,34.1667,77.5833,54.99,38,92,4.03,IN,1663117463
makokou,0.5738,12.8642,69.01,92,100,2.73,GA,1663117343
hualmay,-11.0964,-77.6139,60.49,84,91,10.74,PE,1663117465
davila,18.4726,120.5763,84.18,78,71,16.98,PH,1663117465
sotnikovskoye,45.0039,43.7772,63.73,83,100,4.18,RU,1663117467
morrinhos,-17.7311,-49.0994,79.65,23,18,1.79,BR,1663117468
kualakapuas,-3.0091,114.3876,75.11,93,100,1.07,ID,1663117469
paris,48.8534,2.3488,71.38,88,0,5.75,FR,1663117390
arlit,18.7369,7.3853,91.62,11,16,12.75,NE,1663117471
maria aurora,15.7967,121.4737,86.94,58,16,7.29,PH,1663117472
sawakin,19.1059,37.3321,89.94,46,66,2.26,SD,1663117472
ngunguru,-35.6167,174.5,57.11,67,100,5.55,NZ,1663117473
dingle,10.9995,122.6711,85.32,74,10,10.16,PH,1663117474
ambilobe,-13.2,49.05,67.87,81,86,3.69,MG,1663117475
